City,Lat,Lng,Max Temp,Humidity,Cloudiness,Wind Speed,Country,Date
hechingen,48.35,8.96,287.59,17,66,1.18,DE,1588986961
sisimiut,66.94,-53.67,275.92,73,100,1.06,GL,1588986961
sterling,39.01,-77.43,282.04,87,90,4.1,US,1588986959
shirokiy,49.76,129.52,289.26,45,100,3.37,RU,1588986962
stafford,52.81,-2.12,284.26,89,0,0.89,GB,1588986735
cape town,-33.93,18.42,287.15,93,93,0.5,ZA,1588986829
sept-iles,50.2,-66.38,279.15,85,40,2.6,CA,1588986686
bredasdorp,-34.53,20.04,289.15,87,87,1.5,ZA,1588986726
pokhara,28.23,83.98,293.99,40,0,1.63,NP,1588986964
dunedin,-45.87,170.5,289.26,57,9,6.26,NZ,1588986895
todos santos,23.45,-110.22,292.59,80,0,2.24,MX,1588986966
sesvete,45.83,16.12,287.59,71,100,2.6,HR,1588986967
laguna,38.42,-121.42,309.15,11,1,2.1,US,1588986967
shubarshi,48.59,57.19,286.95,61,0,3.55,KZ,1588986968
pangody,65.85,74.49,277.19,97,100,4.1,RU,1588986831
vao,-22.67,167.48,295.81,75,1,9.3,NC,1588986969
beroroha,-21.67,45.17,292.15,77,0,1.35,MG,1588986969
qaanaaq,77.48,-69.36,260.04,80,0,3.11,GL,1588986812
yellowknife,62.46,-114.35,277.15,60,75,7.2,CA,1588986602
hilo,19.73,-155.09,302.15,51,20,5.7,US,1588986970
hermanus,-34.42,19.23,288.71,79,100,4.2,ZA,1588986971
rikitea,-23.12,-134.97,297.63,69,90,2.63,PF,1588986971
bethel,41.37,-73.41,279.26,87,90,1.5,US,1588986804
panlaitan,12.12,119.85,303.46,66,29,1.07,PH,1588986972
punta arenas,-53.15,-70.92,278.15,86,100,3.1,CL,1588986699
inirida,3.87,-67.92,296.86,94,100,0.91,CO,1588986974
mataura,-46.19,168.86,288.61,62,0,1.55,NZ,1588986974
baghdad,33.34,44.4,299.15,39,0,2.6,IQ,1588986973
saint george,37.1,-113.58,305.15,6,1,3.1,US,1588986953
tuktoyaktuk,69.45,-133.04,274.15,80,5,7.2,CA,1588986975
san cristobal,7.77,-72.22,293.0,88,91,2.41,VE,1588986976
kodiak,57.79,-152.41,280.15,87,90,8.2,US,1588986976
buraydah,26.33,43.98,301.15,32,20,4.6,SA,1588986813
vaini,-21.2,-175.2,301.15,83,75,7.2,TO,1588986977
georgetown,5.41,100.34,301.15,94,20,1.0,MY,1588986779
norman wells,65.28,-126.83,278.15,56,5,5.7,CA,1588986978
mar del plata,-38.0,-57.56,287.15,71,57,6.7,AR,1588986978
thompson,55.74,-97.86,275.15,55,20,6.2,CA,1588986726
caibarien,22.52,-79.47,299.4,83,100,5.91,CU,1588986979
harper,4.38,-7.72,300.48,83,100,3.26,LR,1588986980
mount gambier,-37.83,140.77,282.15,93,75,3.1,AU,1588986980
biak,-0.91,122.88,302.11,71,95,2.83,ID,1588986981
wattegama,6.8,81.48,298.15,100,20,1.0,LK,1588986981
hwange,-18.37,26.5,288.22,57,0,1.38,ZW,1588986982
lazaro cardenas,17.96,-102.2,300.96,66,0,3.69,MX,1588986869
valencia,39.33,-0.83,292.15,88,75,2.1,ES,1588986982
bluff,-46.6,168.33,287.2,73,0,3.51,NZ,1588986983
mount isa,-20.73,139.5,303.15,22,0,2.6,AU,1588986983
albany,42.6,-73.97,277.04,72,100,4.49,US,1588986754
constitucion,-35.33,-72.42,286.34,91,100,2.6,CL,1588986984
meulaboh,4.14,96.13,298.69,90,84,1.87,ID,1588986985
esperance,-33.87,121.9,283.15,93,75,2.6,AU,1588986986
mongoumba,3.64,18.59,296.63,86,100,1.42,CF,1588986986
ribeira grande,38.52,-28.7,290.54,91,100,8.48,PT,1588986986
tiruchchendur,8.48,78.12,302.89,71,3,1.62,IN,1588986987
victoria,22.29,114.16,303.15,70,75,4.1,HK,1588986756
provideniya,64.38,-173.3,279.49,62,0,7.38,RU,1588986750
lumsden,50.65,-104.87,280.15,75,90,13.9,CA,1588986988
busselton,-33.65,115.33,277.04,92,0,2.68,AU,1588986989
chuy,-33.7,-53.46,283.85,76,0,2.06,UY,1588986789
maarianhamina,60.1,19.93,277.15,86,43,2.6,AX,1588986986
tuatapere,-46.13,167.68,289.99,66,0,2.75,NZ,1588986990
ibotirama,-12.19,-43.22,296.72,84,100,1.67,BR,1588986991
isilkul,54.91,71.27,288.8,49,0,2.7,RU,1588986991
shimoda,34.67,138.95,293.15,56,75,6.7,JP,1588986992
gaogou,34.02,119.19,290.56,72,28,4.65,CN,1588986992
hobart,-42.88,147.33,285.37,81,75,2.6,AU,1588986791
lavrentiya,65.58,-171.0,275.8,87,1,6.22,RU,1588986756
leningradskiy,69.38,178.42,274.11,91,12,3.43,RU,1588986787
mahibadhoo,3.78,72.97,302.6,76,67,4.45,MV,1588986994
cabo san lucas,22.89,-109.91,302.04,30,5,5.1,MX,1588986730
pevek,69.7,170.31,275.23,84,0,1.08,RU,1588986995
bengkulu,-3.8,102.27,300.08,77,66,1.02,ID,1588986705
port hedland,-20.32,118.57,300.15,22,77,10.3,AU,1588986996
juneau,58.3,-134.42,291.15,31,90,3.1,US,1588986996
oistins,13.07,-59.53,300.15,74,20,7.2,BB,1588986996
ahipara,-35.17,173.17,291.71,63,0,3.69,NZ,1588986997
saint-philippe,-21.36,55.77,295.15,53,20,4.1,RE,1588986997
mahebourg,-20.41,57.7,295.15,94,40,1.0,MU,1588986998
atyrau,47.12,51.88,288.15,77,47,5.0,KZ,1588986999
lovozero,68.0,35.01,271.74,98,100,0.6,RU,1588986999
kupang,-10.17,123.58,303.15,62,20,3.1,ID,1588986787
cidreira,-30.18,-50.21,288.85,79,0,3.23,BR,1588987000
makakilo city,21.35,-158.09,302.15,45,1,4.1,US,1588987001
kapaa,22.08,-159.32,300.15,61,20,8.7,US,1588987001
upernavik,72.79,-56.15,267.3,90,100,4.58,GL,1588986749
ushuaia,-54.8,-68.3,281.15,75,20,2.1,AR,1588987002
berlevag,70.86,29.09,273.35,90,88,6.2,NO,1588987002
arraial do cabo,-22.97,-42.03,295.04,57,46,2.97,BR,1588987003
riyadh,24.69,46.72,299.15,22,25,2.1,SA,1588986836
nanortalik,60.14,-45.24,277.37,72,0,1.06,GL,1588987004
lerwick,60.15,-1.15,280.15,87,100,1.0,GB,1588986880
port alfred,-33.59,26.89,289.82,97,3,2.96,ZA,1588987004
cherskiy,68.75,161.3,275.98,83,0,1.76,RU,1588987005
atuona,-9.8,-139.03,300.72,74,100,6.72,PF,1588986726
vila franca do campo,37.72,-25.43,288.15,93,75,5.1,PT,1588987006
owosso,43.0,-84.18,275.15,34,75,7.2,US,1588986716
kavaratti,10.57,72.64,302.8,73,91,3.12,IN,1588986869
kruisfontein,-34.0,24.73,286.21,95,0,1.22,ZA,1588987008
onda,39.97,-0.25,290.93,87,100,0.12,ES,1588987009
khatanga,71.97,102.5,269.45,95,100,9.81,RU,1588987009
pingxiang,27.62,113.85,296.01,90,100,1.65,CN,1588987009
norilsk,69.35,88.2,277.15,93,40,11.0,RU,1588987010
sunbury,-37.58,144.73,283.15,87,75,5.1,AU,1588987010
nouadhibou,20.93,-17.03,292.15,82,13,9.8,MR,1588987011
filadelfia,39.95,-75.16,282.15,87,90,4.1,US,1588986920
kaitangata,-46.28,169.85,287.59,61,0,0.89,NZ,1588987012
santa barbara,34.42,-119.7,299.26,82,1,2.1,US,1588987012
copiapo,-27.37,-70.33,288.15,77,0,3.1,CL,1588987013
altay,47.87,88.12,287.04,36,0,3.81,CN,1588987013
novikovo,51.15,37.89,280.18,90,100,1.65,RU,1588987014
derzhavinsk,51.1,66.32,289.65,51,99,8.7,KZ,1588987014
san andres,12.58,-81.7,301.15,88,75,3.6,CO,1588987015
kenora,49.82,-94.43,279.15,28,20,3.6,CA,1588987015
phan thiet,10.93,108.1,303.93,63,89,0.79,VN,1588987016
marsh harbour,26.54,-77.06,297.16,62,17,4.07,BS,1588986817
nikolskoye,59.7,30.79,280.15,56,71,3.0,RU,1588987016
domoni,-12.26,44.53,299.05,84,100,5.42,KM,1588987017
hamilton,39.18,-84.53,281.15,36,1,4.6,US,1588986902
ostrovnoy,68.05,39.51,272.09,96,100,4.36,RU,1588986850
bemidji,47.47,-94.88,280.93,30,1,2.6,US,1588987018
samarinda,-0.5,117.15,301.65,89,96,0.72,ID,1588987019
kabalo,-6.05,26.92,293.75,93,0,1.85,CD,1588987019
sovetskiy,61.36,63.58,288.04,69,100,2.74,RU,1588987019
makat,47.65,53.35,290.81,38,0,1.1,KZ,1588987020
roald,62.58,6.13,278.71,80,100,2.6,NO,1588987020
acapulco,16.86,-99.89,302.15,70,20,4.6,MX,1588986984
port shepstone,-30.74,30.45,291.08,77,0,2.35,ZA,1588987022
saint-francois,46.42,3.91,286.48,87,72,1.5,FR,1588987023
rawson,-43.3,-65.1,293.15,40,75,6.2,AR,1588986763
fayaoue,-20.65,166.53,297.47,77,1,9.49,NC,1588987024
airai,-8.93,125.41,293.57,81,19,1.72,TL,1588987024
panguna,-6.32,155.48,302.23,61,21,1.12,PG,1588987025
praia da vitoria,38.73,-27.07,288.15,93,75,4.36,PT,1588987025
pisco,-13.7,-76.22,293.15,82,51,7.2,PE,1588986835
manggar,-2.88,108.27,298.72,93,100,4.04,ID,1588987026
yulara,-25.24,130.99,289.15,38,0,7.7,AU,1588987026
manokwari,-0.87,134.08,302.52,74,36,3.57,ID,1588987027
marzuq,14.4,46.47,296.57,41,60,1.7,YE,1588987027
port blair,11.67,92.75,302.45,75,100,2.38,IN,1588987028
aguimes,27.91,-15.45,292.15,72,20,5.7,ES,1588987028
hithadhoo,-0.6,73.08,302.6,78,100,7.04,MV,1588987029
shahr-e babak,30.12,55.12,289.66,28,0,0.7,IR,1588987029
boa viagem,-5.13,-39.73,295.17,88,49,0.24,BR,1588987029
sao joao da barra,-21.64,-41.05,292.71,76,0,2.55,BR,1588987030
severo-kurilsk,50.68,156.12,274.52,88,83,6.97,RU,1588987031
nuuk,64.18,-51.72,278.15,80,100,3.1,GL,1588987031
nantucket,41.28,-70.1,282.15,87,90,3.1,US,1588986905
castro,-24.79,-50.01,281.95,92,0,1.55,BR,1588987032
touros,-5.2,-35.46,299.15,88,75,2.1,BR,1588987033
butaritari,3.07,172.79,301.61,73,100,3.57,KI,1588986756
sorland,67.67,12.69,274.17,84,100,5.36,NO,1588987033
port elizabeth,-33.92,25.57,289.15,100,90,1.5,ZA,1588987034
avarua,-21.21,-159.78,301.15,74,19,7.2,CK,1588987035
narsaq,60.92,-46.05,280.15,70,93,2.1,GL,1588987035
grindavik,63.84,-22.43,275.15,55,0,5.7,IS,1588987036
tasiilaq,65.61,-37.64,271.15,86,98,1.5,GL,1588987036
marystown,47.17,-55.15,273.79,94,8,4.31,CA,1588987036
itacare,-14.28,-39.0,296.93,77,100,6.37,BR,1588987037
quang ngai,15.12,108.8,304.34,65,39,1.53,VN,1588986838
hasaki,35.73,140.83,294.26,59,75,4.6,JP,1588987038
jamestown,42.1,-79.24,273.71,80,90,5.1,US,1588986833
ancud,-41.87,-73.82,286.48,100,90,3.6,CL,1588986760
hay river,60.82,-115.8,277.15,69,75,3.6,CA,1588987039
vila,42.03,-8.16,285.37,93,99,2.68,PT,1588987040
alice springs,-23.7,133.88,292.15,20,0,6.2,AU,1588986909
rocha,-34.48,-54.33,282.26,87,0,2.6,UY,1588987041
severobaykalsk,55.65,109.32,276.74,69,0,2.5,RU,1588987042
codrington,-38.27,141.97,285.1,68,100,7.76,AU,1588986797
kamariotissa,40.48,25.47,284.15,76,0,4.54,GR,1588987043
naze,28.37,129.48,297.15,78,75,6.2,JP,1588986774
camacha,33.08,-16.33,292.15,82,40,6.2,PT,1588987043
dehloran,32.69,47.27,298.31,27,0,1.63,IR,1588987044
anadyr,64.75,177.48,276.15,69,7,16.0,RU,1588987044
lebu,-37.62,-73.65,287.34,94,100,2.64,CL,1588987045
mersing,2.43,103.84,299.15,94,20,1.5,MY,1588987045
urumqi,43.8,87.6,290.15,20,0,4.0,CN,1588987045
ampanihy,-24.7,44.75,290.45,90,19,4.68,MG,1588987046
barcelos,41.54,-8.62,288.15,87,90,3.1,PT,1588987046
flin flon,54.77,-101.86,279.35,61,100,3.73,CA,1588987047
prince rupert,54.32,-130.32,290.88,48,100,0.76,CA,1588987047
am timan,11.03,20.28,302.64,36,1,1.71,TD,1588987048
ambilobe,-13.2,49.05,294.27,93,58,1.55,MG,1588987048
saint-georges,12.06,-61.75,301.15,78,20,7.2,GD,1588987048
salacgriva,57.75,24.36,277.04,91,13,0.45,LV,1588987049
zakan-yurt,43.26,45.42,284.15,93,90,9.0,RU,1588987050
ambulu,-8.35,113.61,301.02,80,99,0.9,ID,1588987050
aktas,49.78,72.96,280.15,81,100,5.0,KZ,1588987051
puerto ayora,-0.74,-90.35,298.15,94,77,0.45,EC,1588986988
darnah,32.77,22.64,290.11,70,0,6.56,LY,1588987051
show low,34.25,-110.03,297.15,14,1,7.2,US,1588987052
smidovich,48.6,133.82,291.21,38,100,1.28,RU,1588987052
quatre cocos,-20.21,57.76,295.15,94,40,1.0,MU,1588987053
tiksi,71.69,128.87,265.9,97,100,6.02,RU,1588987053
saint-pierre,-21.34,55.48,295.15,53,20,4.1,RE,1588987053
yarada,17.65,83.27,301.15,88,75,3.1,IN,1588987054
fairbanks,64.84,-147.72,293.71,17,20,3.6,US,1588986904
kingsport,36.55,-82.56,281.48,81,40,5.1,US,1588986831
karratha,-20.74,116.85,300.1,27,71,10.26,AU,1588987055
puerto escondido,15.85,-97.07,303.15,79,40,4.1,MX,1588987055
stow,41.16,-81.44,274.82,47,40,5.1,US,1588987056
lishui,28.46,119.91,302.53,73,76,0.5,CN,1588987057
kandi,11.13,2.94,302.04,57,9,3.27,BJ,1588987057
dikson,73.51,80.55,268.53,95,9,6.35,RU,1588987058
teya,60.38,92.63,280.3,81,100,3.87,RU,1588987058
pital,2.27,-75.8,293.43,83,100,2.44,CO,1588987059
ukiah,39.15,-123.21,305.15,17,1,4.6,US,1588987037
flinders,-34.58,150.86,297.59,50,0,4.92,AU,1588987060
inhambane,-23.86,35.38,294.01,83,40,3.63,MZ,1588986867
moose factory,51.26,-80.61,271.15,79,90,2.1,CA,1588987060
solnechnyy,50.72,136.63,285.78,40,100,1.93,RU,1588987061
camalu,30.85,-116.07,295.37,48,0,1.79,MX,1588987061
luderitz,-26.65,15.16,284.15,100,0,0.5,NA,1588987062
mayo,38.89,-76.51,286.48,100,90,7.7,US,1588987062
palm bay,28.03,-80.59,297.04,73,1,5.7,US,1588987036
seoul,37.57,126.98,289.15,93,90,2.1,KR,1588986724
escarcega,18.61,-90.75,299.41,74,53,0.9,MX,1588987063
hobyo,5.35,48.53,301.96,76,0,3.61,SO,1588986803
la tuque,47.43,-72.78,270.52,89,25,1.58,CA,1588987064
alexandria,31.22,29.96,292.15,82,40,6.7,EG,1588987037
carnarvon,-24.87,113.63,293.58,42,100,9.84,AU,1588987061
longyearbyen,78.22,15.64,270.15,73,40,5.1,SJ,1588987065
port lincoln,-34.73,135.87,286.26,61,97,8.13,AU,1588987066
comodoro rivadavia,-45.87,-67.5,286.15,93,100,2.85,AR,1588986991
lumeje,-11.55,20.78,292.52,67,98,2.41,AO,1588987067
padang,-0.95,100.35,301.59,68,86,1.25,ID,1588987067
naantali,60.47,22.02,275.15,100,0,2.6,FI,1588987068
koson,39.04,65.58,287.15,93,20,4.1,UZ,1588987068
merritt,50.11,-120.79,300.15,21,1,1.5,CA,1588986928
kavieng,-2.57,150.8,303.04,69,0,3.56,PG,1588987069
kaoma,-14.78,24.8,287.28,75,0,2.44,ZM,1588987069
high rock,26.62,-78.28,298.15,69,40,1.0,BS,1588987070
la ronge,55.1,-105.28,278.15,44,75,3.1,CA,1588987071
east london,-33.02,27.91,293.9,72,91,1.56,ZA,1588987049
olinda,-8.01,-34.86,300.15,74,40,2.1,BR,1588987072
tabas,33.6,56.92,294.15,23,0,1.0,IR,1588987072
margate,51.38,1.39,286.48,71,100,4.05,GB,1588987072
dacudao,7.22,125.47,303.15,70,20,4.1,PH,1588987073
isangel,-19.55,169.27,300.15,74,40,5.1,VU,1588987073
port hardy,50.7,-127.42,295.15,37,20,1.0,CA,1588987074
tikrit,34.61,43.68,297.3,36,0,3.52,IQ,1588987074
ternate,0.8,127.4,302.96,69,5,1.52,ID,1588987074
broken hill,-31.95,141.43,288.15,54,0,11.8,AU,1588986825
boali,4.8,18.13,298.15,94,20,1.0,CF,1588987075
neyvo-shaytanskiy,57.73,61.25,286.41,55,0,2.45,RU,1588987076
batticaloa,7.71,81.69,300.66,82,23,2.29,LK,1588987076
iqaluit,63.75,-68.51,273.15,90,75,4.6,CA,1588987076
hualmay,-11.1,-77.61,293.36,79,64,3.54,PE,1588987077
nizwa,22.93,57.53,300.13,29,0,1.36,OM,1588987077
kahului,20.89,-156.47,300.15,61,40,8.2,US,1588987078
hakui,36.88,136.78,293.15,45,75,3.6,JP,1588987078
honiara,-9.43,159.95,304.15,66,75,3.1,SB,1588987048
bilma,18.69,12.92,301.28,11,0,3.73,NE,1588987079
vila velha,-20.33,-40.29,294.26,77,20,3.1,BR,1588987028
oxbow,49.23,-102.17,287.15,50,40,5.7,CA,1588987080
pacific grove,36.62,-121.92,293.15,67,1,4.1,US,1588987080
jaisinghnagar,23.7,81.38,301.06,23,0,4.21,IN,1588987081
poum,-20.23,164.02,297.1,66,0,0.81,NC,1588987081
samarai,-10.62,150.67,300.23,81,80,7.12,PG,1588987081
new norfolk,-42.78,147.06,285.37,83,100,1.27,AU,1588987082
lompoc,34.64,-120.46,297.04,63,1,2.1,US,1588987020
torbay,47.67,-52.73,275.93,92,5,7.2,CA,1588987059
klaksvik,62.23,-6.59,276.15,71,98,7.2,FO,1588987083
fuerte olimpo,-21.04,-57.87,287.59,55,0,1.35,PY,1588987084
grand forks,47.93,-97.03,282.15,31,40,3.1,US,1588986881
clyde river,70.47,-68.59,263.15,92,90,8.2,CA,1588987085
vardo,70.37,31.11,274.38,83,100,3.08,NO,1588986726
lodja,-3.48,23.43,294.72,95,25,0.59,CD,1588986960
shubarkuduk,49.14,56.49,287.78,58,0,4.65,KZ,1588987086
rapid city,44.08,-103.23,287.59,44,90,4.1,US,1588987002
tabou,4.42,-7.35,300.35,83,100,3.17,CI,1588987088
fort nelson,58.81,-122.7,291.15,31,40,2.6,CA,1588987088
kalemie,-5.95,29.19,295.63,80,1,2.4,CD,1588987029
tiarei,-17.53,-149.33,305.15,62,100,3.1,PF,1588987089
stornoway,58.21,-6.39,282.15,87,100,2.1,GB,1588987089
itarema,-2.92,-39.92,299.01,88,96,2.64,BR,1588987090
danville,36.59,-79.39,285.37,81,75,5.7,US,1588987047
faanui,-16.48,-151.75,300.89,79,14,5.87,PF,1588987091
davidson,36.15,-86.78,286.15,50,40,4.6,US,1588987091
lagoa,39.05,-27.98,289.41,89,100,8.42,PT,1588987092
kulhudhuffushi,6.62,73.07,302.25,72,1,2.12,MV,1588987092
palana,59.12,159.97,273.28,92,100,10.86,RU,1588987093
kourou,5.16,-52.65,300.15,78,90,3.6,GF,1588987093
yantal,56.85,105.25,281.0,53,88,2.98,RU,1588987094
bonga,7.28,36.23,289.81,91,100,0.41,ET,1588987095
ulladulla,-35.35,150.47,297.04,33,39,5.7,AU,1588987095
gashua,12.87,11.05,305.53,23,40,3.92,NG,1588987095
ponta do sol,32.67,-17.1,291.15,72,20,2.6,PT,1588987096
paamiut,61.99,-49.67,278.23,73,68,5.14,GL,1588987097
namatanai,-3.67,152.43,303.56,65,0,2.71,PG,1588987097
jackson,42.42,-122.83,306.15,23,1,3.6,US,1588986996
tabuk,17.42,121.44,303.38,64,17,0.9,PH,1588987065
panama city,8.99,-79.52,302.15,79,100,2.6,PA,1588986580
tecolutla,20.48,-97.02,303.15,66,40,4.1,MX,1588987100
villa constitucion,-33.23,-60.33,287.59,64,96,1.34,AR,1588987100
amot,59.57,7.99,276.48,72,100,2.45,NO,1588987101
arlit,18.74,7.39,300.98,12,91,2.89,NE,1588986816
ishigaki,24.34,124.16,299.15,88,75,4.1,JP,1588987102
vanavara,60.34,102.28,278.89,64,100,2.57,RU,1588987102
begoro,6.39,-0.38,295.95,98,22,2.12,GH,1588987103
aviles,43.55,-5.92,288.15,100,90,1.0,ES,1588986989
hofn,64.25,-15.21,273.79,89,100,6.16,IS,1588987104
cayenne,4.93,-52.33,300.15,78,90,3.6,GF,1588987104
bolitoc,15.74,119.88,304.26,62,72,1.5,PH,1588987105
cockburn town,21.46,-71.14,300.1,84,100,8.2,TC,1588987105
coahuayana,18.73,-103.68,301.15,48,20,7.7,MX,1588987106
nowogard,53.67,15.12,282.59,80,34,1.0,PL,1588987106
bubaque,11.28,-15.83,299.05,76,100,5.52,GW,1588987079
maamba,-17.37,27.15,288.44,69,0,0.39,ZM,1588987107
bambous virieux,-20.34,57.76,295.15,94,40,1.0,MU,1588987108
tuxtla,16.75,-93.12,301.15,65,90,4.6,MX,1588986990
buluang,13.31,123.34,305.34,53,9,0.75,PH,1588987108
vestmannaeyjar,63.44,-20.27,278.12,69,19,3.09,IS,1588987109
birao,10.28,22.79,300.74,28,100,1.81,CF,1588987109
manadhoo,5.77,73.38,302.49,75,87,3.89,MV,1588987110
lorica,9.24,-75.81,300.54,86,100,2.64,CO,1588987110
terrace bay,48.78,-87.1,272.96,88,100,4.48,CA,1588987110
sumenep,-7.02,113.87,301.81,80,100,5.54,ID,1588987111
petropavlovsk-kamchatskiy,53.05,158.65,282.15,31,100,9.0,RU,1588987111
mitsamiouli,-11.38,43.28,299.94,77,100,6.49,KM,1588987112
khromtau,50.25,58.43,285.52,64,0,3.91,KZ,1588987112
korla,41.76,86.15,290.96,26,34,1.92,CN,1588987113
xacmaz,41.46,48.81,286.94,81,9,1.26,AZ,1588987113
salamanca,40.83,-6.0,286.15,82,20,0.5,ES,1588987113
reconquista,-29.15,-59.65,283.7,66,0,3.22,AR,1588987115
portland,45.52,-122.68,300.37,18,1,7.2,US,1588986958
elizabeth city,36.29,-76.25,290.15,51,90,4.6,US,1588987115
wanganui,-39.93,175.05,290.93,60,86,3.13,NZ,1588987116
alyangula,-13.85,136.42,301.15,69,40,3.1,AU,1588987116
barrow,71.29,-156.79,267.15,85,90,5.1,US,1588987117
grootfontein,-19.57,18.12,285.08,50,0,2.07,NA,1588987117
moulins,46.5,3.33,286.48,87,62,1.5,FR,1588987117
dudinka,69.41,86.18,277.15,93,40,11.0,RU,1588987118
ofunato,39.07,141.72,287.15,67,75,1.0,JP,1588987118
cap malheureux,-19.98,57.61,295.15,94,40,1.0,MU,1588987119
rio grande,-32.03,-52.1,284.82,90,0,3.0,BR,1588986900
manoel urbano,-8.84,-69.26,294.27,79,63,1.1,BR,1588987120
kodinsk,58.69,99.18,281.47,59,98,1.7,RU,1588987120
slobodskoy,58.73,50.18,285.01,96,97,2.47,RU,1588987121
tungor,53.38,142.96,275.63,81,100,2.78,RU,1588987121
loiza,18.43,-65.88,301.15,74,20,4.1,PR,1588987122
upington,-28.45,21.26,285.15,40,0,2.1,ZA,1588987122
tsumeb,-19.23,17.72,288.13,42,0,3.99,NA,1588987123
marsabit,2.33,37.99,290.99,100,96,6.93,KE,1588987123
esperanza,19.58,-70.98,301.15,74,75,6.2,DO,1588986945
armidale,-30.52,151.65,287.59,67,100,3.58,AU,1588986913
raghunathpur,23.55,86.67,302.34,52,0,3.01,IN,1588987125
chokurdakh,70.63,147.92,270.64,98,100,3.11,RU,1588987074
banjarmasin,-3.32,114.59,301.15,94,20,2.6,ID,1588986897
itupeva,-23.15,-47.06,289.15,72,0,6.7,BR,1588987127
aklavik,68.22,-135.01,281.15,45,5,5.1,CA,1588987116
mareeba,-17.0,145.43,300.15,65,98,4.6,AU,1588987128
sitka,57.05,-135.33,284.15,71,90,1.5,US,1588987128
hirado,33.36,129.55,294.15,64,75,8.7,JP,1588987128
kerrville,30.05,-99.14,295.15,40,1,5.1,US,1588987066
buzmeyin,38.05,58.21,289.15,67,0,1.0,TM,1588987129
husavik,66.04,-17.34,274.15,59,75,1.5,IS,1588987050
geraldton,-28.77,114.6,288.15,54,77,5.7,AU,1588987130
gao,16.64,1.64,303.08,14,0,3.09,ML,1588987131
magadan,59.57,150.8,276.15,76,14,1.06,RU,1588987131
diamantino,-14.41,-56.45,291.73,83,100,1.26,BR,1588987132
kautokeino,69.01,23.04,267.85,96,100,2.91,NO,1588987132
tarauaca,-8.16,-70.77,294.67,81,64,0.95,BR,1588987133
hami,42.8,93.45,292.9,20,0,3.19,CN,1588987133
varhaug,58.61,5.65,278.15,80,40,1.5,NO,1588987134
chabahar,25.29,60.64,301.32,71,0,3.98,IR,1588987134
kawalu,-7.38,108.21,299.15,82,100,0.28,ID,1588987134
puerto madryn,-42.77,-65.04,293.15,40,75,6.2,AR,1588987087
totness,5.88,-56.32,298.97,81,100,4.99,SR,1588987135
abonnema,4.71,6.79,298.92,83,91,1.12,NG,1588987136
tokur,53.13,132.9,283.66,44,0,3.54,RU,1588987136
vestmanna,62.16,-7.17,276.15,77,95,7.2,FO,1588987137
carpinteria,34.4,-119.52,299.26,35,83,1.37,US,1588987043
ilulissat,69.22,-51.1,272.15,80,100,1.0,GL,1588987137
taganak,6.08,118.3,301.15,94,40,2.1,PH,1588987138
verkhoyansk,67.54,133.38,269.24,94,100,1.57,RU,1588987138
takoradi,4.88,-1.76,300.34,87,100,3.06,GH,1588987139
coihaique,-45.58,-72.07,281.15,100,90,1.26,CL,1588987139
collie,-33.37,116.15,277.04,92,0,1.66,AU,1588987140
adrar,20.5,-10.07,304.36,17,0,5.21,MR,1588987140
bunbury,-33.33,115.63,277.04,92,0,2.51,AU,1588987141
kaeo,-35.1,173.78,292.59,49,0,2.68,NZ,1588987141
yangambi,0.81,24.43,294.58,98,77,1.58,CD,1588987142
sur,22.57,59.53,304.27,45,0,3.91,OM,1588987142
los llanos de aridane,28.66,-17.92,293.15,72,75,2.1,ES,1588987074
villamontes,-21.25,-63.5,287.35,63,0,0.38,BO,1588987143
saint-honore,48.53,-71.08,274.82,63,20,3.1,CA,1588987143
hanzhong,33.07,107.03,286.34,76,100,2.24,CN,1588987144
kargasok,59.06,80.86,289.63,60,100,4.12,RU,1588987144
necochea,-38.55,-58.74,284.82,87,100,3.13,AR,1588987145
ambo,-10.13,-76.2,287.55,68,52,1.03,PE,1588987145
vaghodia,22.3,73.38,300.35,61,0,2.37,IN,1588987146
palencia,42.42,-4.5,285.93,94,0,0.45,ES,1588987147
inongo,-1.95,18.27,295.18,92,100,1.99,CD,1588987147
cananeia,-25.01,-47.93,291.17,77,53,0.67,BR,1588987148
concepcion del oro,24.63,-101.42,290.19,51,1,3.85,MX,1588987148
kampong cham,11.99,105.46,304.06,69,100,4.09,KH,1588986910
kihei,20.79,-156.47,300.15,61,40,8.2,US,1588986921
lorengau,-2.02,147.27,302.71,73,87,2.1,PG,1588987150
manjeshwar,12.72,74.89,300.15,88,20,1.5,IN,1588987150
fortuna,40.6,-124.16,288.15,93,1,5.7,US,1588987151
richards bay,-28.78,32.04,290.96,85,0,2.09,ZA,1588987151
isla mujeres,21.23,-86.73,300.15,74,40,4.1,MX,1588987152
olga,43.74,135.29,288.88,53,100,0.47,RU,1588987152
katsuura,35.13,140.3,293.71,56,100,2.68,JP,1588987153
laurel,39.1,-76.85,283.15,93,75,4.6,US,1588986903
nsanje,-16.92,35.26,290.95,95,5,0.82,MW,1588987154
banda aceh,5.56,95.32,300.01,80,100,1.85,ID,1588987154
alakurtti,66.97,30.35,268.71,90,3,0.44,RU,1588987154
raglan,-37.8,174.88,290.93,95,3,0.89,NZ,1588987155
dublin,37.7,-121.94,308.15,16,1,4.6,US,1588986870
kaili,-3.46,120.21,297.43,83,90,0.43,ID,1588987156
bereda,43.27,-7.54,288.15,100,35,1.34,ES,1588987156
nyurba,63.28,118.33,272.71,81,0,3.16,RU,1588987157
henderson,36.04,-114.98,307.59,4,1,0.5,US,1588987157
parga,39.28,20.4,285.15,100,1,1.37,GR,1588987158
diepholz,52.6,8.37,282.04,84,33,1.86,DE,1588987159
sao raimundo das mangabeiras,-7.02,-45.48,298.11,81,88,0.63,BR,1588987159
waterloo,43.47,-80.52,271.48,63,1,4.6,CA,1588987062
ust-ilimsk,58.0,102.66,280.32,58,100,1.98,RU,1588987161
dakar,14.69,-17.44,294.15,88,37,6.2,SN,1588986967
cermik,38.14,39.45,285.15,100,75,2.1,TR,1588987161
mananjary,-21.22,48.33,294.06,85,61,2.63,MG,1588987162
sao filipe,14.9,-24.5,296.18,76,1,4.68,CV,1588987162
san rafael,-34.62,-68.33,289.62,40,2,6.21,AR,1588987090
gizo,-8.1,156.84,302.56,72,66,2.26,SB,1588987164
esmeralda,21.85,-78.12,298.15,88,100,2.6,CU,1588987165
oranjestad,12.52,-70.03,301.15,78,20,12.3,AW,1588987149
kikwit,-5.04,18.82,295.19,96,37,0.38,CD,1588987166
betanzos,43.28,-8.21,287.15,100,90,0.5,ES,1588987167
namibe,-15.2,12.15,299.1,55,0,1.2,AO,1588987167
kargat,55.2,80.28,286.76,59,0,1.51,RU,1588987169
ibra,22.69,58.53,300.15,48,0,0.68,OM,1588987169
sola,-13.88,167.55,303.15,66,20,2.6,VU,1588987169
beringovskiy,63.05,179.32,273.19,98,100,4.88,RU,1588987170
abu zabad,12.35,29.25,299.74,13,77,4.34,SD,1588987170
labuhan,-6.88,112.21,301.35,82,100,3.14,ID,1588987171
aranos,-24.13,19.12,289.25,35,0,4.81,NA,1588987171
benjamin constant,-4.38,-70.03,296.15,94,90,0.9,BR,1588987172
kerman,30.28,57.08,284.15,53,0,2.19,IR,1588987172
paraiso,9.84,-83.87,297.15,73,75,3.6,CR,1588986920
batagay-alyta,67.8,130.41,265.04,88,74,0.25,RU,1588987173
badarpur,24.9,92.6,299.13,52,0,1.24,IN,1588987173
sharkan,57.3,53.87,286.48,51,0,1.95,RU,1588987174
upata,8.01,-62.4,300.93,72,100,2.24,VE,1588987174
zabid,14.2,43.32,305.76,51,12,2.92,YE,1588987175
nome,64.5,-165.41,286.15,37,75,6.7,US,1588987074
novo aripuana,-5.12,-60.38,297.21,95,96,0.26,BR,1588987176
arras,50.29,2.78,285.93,73,99,0.45,FR,1588987176
mulki,13.1,74.8,300.15,88,20,1.5,IN,1588987176
lasa,46.62,10.7,284.26,93,40,0.81,IT,1588987177
odobesti,45.77,27.05,281.86,71,97,1.66,RO,1588987177
cartagena,10.4,-75.51,300.8,83,99,5.38,CO,1588986965
steinbach,50.17,8.57,290.93,51,83,3.6,DE,1588987178
santa maria,-29.68,-53.81,284.47,79,9,1.52,BR,1588987179
riviere-au-renard,49.0,-64.4,273.15,89,40,1.5,CA,1588987179
kandra,22.85,86.05,302.45,46,0,1.6,IN,1588987180
callaguip,18.07,120.49,306.15,55,20,2.1,PH,1588987180
vina del mar,-33.02,-71.55,286.15,87,90,1.5,CL,1588987025
pangnirtung,66.15,-65.71,271.44,91,100,0.11,CA,1588987181
maldonado,-34.67,-54.92,284.82,87,0,2.1,UY,1588987182
bima,-8.47,118.72,301.49,70,2,2.07,ID,1588987118
santa cruz,-17.8,-63.17,291.15,68,0,1.5,BO,1588986903
kuytun,54.34,101.5,279.26,69,54,4.34,RU,1588987183
camocim,-2.9,-40.84,298.9,89,100,2.03,BR,1588987184
honningsvag,70.98,25.97,274.71,82,94,7.22,NO,1588987185
byron bay,-28.65,153.62,296.15,60,75,2.6,AU,1588986570
chisec,15.82,-90.28,297.91,88,100,1.56,GT,1588987186
san patricio,19.22,-104.7,300.15,69,5,2.69,MX,1588987186
gimbi,9.17,35.83,289.3,100,100,1.67,ET,1588987187
akdepe,42.06,59.38,290.15,87,11,6.2,TM,1588987187
gojra,31.15,72.69,302.53,30,23,3.99,PK,1588987188
dingle,11.0,122.67,304.33,58,98,4.17,PH,1588987188
kandrian,-6.22,149.55,303.2,67,100,1.67,PG,1588987189
pemangkat,1.17,108.97,299.61,82,100,3.18,ID,1588986919
calabozo,8.92,-67.43,304.24,39,99,2.03,VE,1588987190
babati,-4.22,35.75,288.77,96,69,0.59,TZ,1588987190
rio gallegos,-51.62,-69.22,280.15,100,20,2.6,AR,1588987190
kutum,14.2,24.67,295.4,18,94,4.43,SD,1588987191
chicama,-7.84,-79.15,295.38,73,14,2.68,PE,1588987191
ghanzi,-21.57,21.78,285.19,43,0,1.32,BW,1588987192
redmond,47.67,-122.12,299.82,25,23,1.82,US,1588987103
bathsheba,13.22,-59.52,300.15,74,20,7.2,BB,1588987109
bud,39.45,-86.18,277.59,44,1,6.2,US,1588987193
jardim,-21.48,-56.14,287.53,66,0,1.99,BR,1588987194
okahandja,-21.98,16.92,286.15,47,0,2.6,NA,1588987194
port keats,-14.25,129.55,302.1,45,4,2.29,AU,1588987052
waipawa,-41.41,175.52,290.15,67,38,2.6,NZ,1588987027
bad windsheim,49.5,10.42,287.15,100,90,2.05,DE,1588987195
bentiu,9.23,29.83,302.38,57,100,1.83,SS,1588987057
emerald,-23.53,148.17,298.15,64,0,5.1,AU,1588987196
eureka,40.8,-124.16,288.71,78,100,1.34,US,1588987197
tucurui,-3.77,-49.67,297.78,88,91,0.55,BR,1588987197
srednekolymsk,67.45,153.68,274.79,91,11,4.04,RU,1588987134
heishan,41.69,122.11,285.68,75,100,0.26,CN,1588987198
rabat,33.99,-6.84,289.26,93,40,3.1,MA,1588987111
natitingou,10.3,1.38,299.15,83,92,1.0,BJ,1588987199
guerrero negro,27.98,-114.06,295.09,62,0,7.6,MX,1588987052
saint-joseph,-21.37,55.62,295.15,53,20,4.1,RE,1588987200
naples,40.83,14.25,289.82,71,100,1.0,IT,1588987200
wamba,8.93,8.6,298.45,79,0,0.26,NG,1588987200
ambovombe,-25.17,46.08,293.09,81,12,7.28,MG,1588987201
pangai,-19.8,-174.35,303.15,70,75,4.6,TO,1588987201
lethem,3.38,-59.8,298.84,79,63,4.29,GY,1588987202
henties bay,-22.12,14.28,293.36,52,0,3.32,NA,1588987183
aswan,24.09,32.91,297.47,18,61,2.46,EG,1588987203
kananga,-5.9,22.42,294.4,93,44,1.17,CD,1588987204
linhai,28.85,121.12,301.48,86,77,1.13,CN,1588987204
rio cuarto,-33.13,-64.35,287.15,62,100,8.2,AR,1588987204
zverinogolovskoye,54.46,64.85,288.61,57,0,3.98,RU,1588987205
sorong,-0.88,131.25,302.64,73,0,3.65,ID,1588987206
angoche,-16.23,39.91,295.29,84,23,3.9,MZ,1588987206
benguela,-12.58,13.41,298.17,67,0,1.58,AO,1588987207
poronaysk,49.22,143.12,285.79,54,27,4.15,RU,1588987207
hearst,49.68,-83.67,269.83,97,100,3.21,CA,1588987112
qasigiannguit,68.82,-51.19,272.15,80,100,1.0,GL,1588987208
rumonge,-3.97,29.44,294.94,71,24,1.63,BI,1588987208
chapleau,47.84,-83.4,270.15,53,90,2.6,CA,1588987209
zharkent,44.16,80.0,293.6,26,100,2.18,KZ,1588987209
amaigbo,5.79,7.84,297.64,92,95,1.64,NG,1588987210
rabo de peixe,37.8,-25.58,288.15,93,75,5.1,PT,1588987210
kunming,25.04,102.72,296.48,45,0,6.0,CN,1588987210
waingapu,-9.66,120.26,301.03,71,19,6.92,ID,1588987211
erenhot,43.65,111.98,289.62,27,3,7.74,CN,1588987211
kalengwa,-13.47,25.0,286.88,74,1,2.23,ZM,1588987212
saskylakh,71.92,114.08,259.87,93,19,3.11,RU,1588987212
irbeyskoye,55.64,95.45,281.45,59,86,2.58,RU,1588987212
baruun-urt,46.68,113.28,286.3,42,82,3.98,MN,1588987213
oltu,40.55,42.0,282.03,76,100,0.73,TR,1588987213
bay roberts,47.6,-53.26,274.82,94,0,6.26,CA,1588987214
szczytno,53.56,20.99,277.33,79,0,1.94,PL,1588987214
san diego de los banos,22.65,-83.37,296.81,76,95,0.87,CU,1588987215
souillac,-20.52,57.52,295.15,94,40,1.0,MU,1588987215
puerto carreno,6.19,-67.49,299.56,85,100,3.94,CO,1588987215
bismarck,46.81,-100.78,287.59,35,1,3.6,US,1588987216
demba,-5.51,22.27,294.12,97,20,0.67,CD,1588987216
belaya gora,68.53,146.42,274.19,97,100,3.82,RU,1588987217
machhlishahr,25.68,82.42,299.15,69,0,2.1,IN,1588987217
porto novo,6.5,2.6,302.15,83,40,4.6,BJ,1588987016
bilibino,68.05,166.44,275.37,82,1,1.94,RU,1588987218
duns,55.78,-2.35,284.26,73,1,2.26,GB,1588987219
yuxia,34.06,108.63,286.48,93,90,8.0,CN,1588987219
ardatov,55.24,43.1,284.48,93,100,2.63,RU,1588987220
marfino,55.7,37.38,284.26,76,75,4.0,RU,1588987220
soyo,-6.13,12.37,298.99,91,74,1.47,AO,1588987221
raha,26.23,92.52,298.27,55,0,1.48,IN,1588987221
bela,25.93,81.98,302.55,25,0,2.83,IN,1588987221
ordu,40.91,37.68,274.9,93,4,2.11,TR,1588987188
villazon,-22.09,-65.59,284.29,45,0,2.99,BO,1588987222
winnemucca,40.97,-117.74,300.15,4,1,4.6,US,1588987223
simbahan,6.3,120.58,302.46,71,17,1.73,PH,1588987223
capinota,-17.72,-66.23,289.15,39,0,2.6,BO,1588987223
